found $GPGGA at:0$GPGGA,000107,,N,,E,0,00,,,M,,M,,*6B
found $GPRMC at:0$GPRMC,000107,V,,N,,E,,,010303,,,N*5F
found $GPGGA at:0$GPGGA,000108,,N,,E,0,00,,,M,,M,,*64
found $GPRMC at:0$GPRMC,000108,V,,N,,E,,,010303,,,N*50
found $GPGGA at:0$GPGGA,000109,,N,,E,0,00,,,M,,M,,*65
found $GPRMC at:0$GPRMC,000109,V,,N,,E,,,010303,,,N*51
found $GPGGA at:0$GPGGA,000110,,N,,E,0,00,,,M,,M,,*6D
found $GPRMC at:0$GPRMC,000110,V,,N,,E,,,010303,,,N*59
found $GPGGA at:0$GPGGA,000111,,N,,E,0,00,,,M,,M,,*6C
found $GPRMC at:0$GPRMC,000111,V,,N,,E,,,010303,,,N*58
found $GPGGA at:0$GPGGA,000112,,N,,E,0,00,,,M,,M,,*6F
found $GPRMC at:0$GPRMC,000112,V,,N,,E,,,010303,,,N*5B
found $GPGGA at:0$GPGGA,000113,,N,,E,0,00,,,M,,M,,*6E
found $GPRMC at:0$GPRMC,000113,V,,N,,E,,,010303,,,N*5A
found $GPGGA at:0$GPGGA,000114,,N,,E,0,00,,,M,,M,,*69
found $GPRMC at:0$GPRMC,000114,V,,N,,E,,,010303,,,N*5D
found $GPGGA at:0$GPGGA,000115,,N,,E,0,00,,,M,,M,,*68
found $GPRMC at:0$GPRMC,000115,V,,N,,E,,,010303,,,N*5C
found $GPGGA at:0$GPGGA,000116,,N,,E,0,00,,,M,,M,,*6B
found $GPRMC at:0$GPRMC,000116,V,,N,,E,,,010303,,,N*5F
found $GPGGA at:0$GPGGA,000117,,N,,E,0,00,,,M,,M,,*6A
found $GPRMC at:0$GPRMC,000117,V,,N,,E,,,010303,,,N*5E
found $GPGGA at:0$GPGGA,000118,,N,,E,0,00,,,M,,M,,*65
found $GPRMC at:0$GPRMC,000118,V,,N,,E,,,010303,,,N*51
found $GPGGA at:0$GPGGA,000119,,N,,E,0,00,,,M,,M,,*64
found $GPRMC at:0$GPRMC,000119,V,,N,,E,,,010303,,,N*50
found $GPGGA at:0$GPGGA,000120,,N,,E,0,00,,,M,,M,,*6E
found $GPRMC at:0$GPRMC,000120,V,,N,,E,,,010303,,,N*5A
found $GPGGA at:0$GPGGA,000121,,N,,E,0,00,,,M,,M,,*6F
found $GPRMC at:0$GPRMC,000121,V,,N,,E,,,010303,,,N*5B
found $GPGGA at:0$GPGGA,000122,,N,,E,0,00,,,M,,M,,*6C
found $GPRMC at:0$GPRMC,000122,V,,N,,E,,,010303,,,N*58
found $GPGGA at:0$GPGGA,000123,,N,,E,0,00,,,M,,M,,*6D
found $GPRMC at:0$GPRMC,000123,V,,N,,E,,,010303,,,N*59
found $GPGGA at:0$GPGGA,000124,,N,,E,0,00,,,M,,M,,*6A
found $GPRMC at:0$GPRMC,000124,V,,N,,E,,,010303,,,N*5E
found $GPGGA at:0$GPGGA,000125,,N,,E,0,00,,,M,,M,,*6B
found $GPRMC at:0$GPRMC,000125,V,,N,,E,,,010303,,,N*5F
found $GPGGA at:0$GPGGA,000126,,N,,E,0,00,,,M,,M,,*68
found $GPRMC at:0$GPRMC,000126,V,,N,,E,,,010303,,,N*5C
found $GPGGA at:0$GPGGA,000127,,N,,E,0,00,,,M,,M,,*69
found $GPRMC at:0$GPRMC,000127,V,,N,,E,,,010303,,,N*5D
found $GPGGA at:0$GPGGA,000128,,N,,E,0,00,,,M,,M,,*66
found $GPRMC at:0$GPRMC,000128,V,,N,,E,,,010303,,,N*52
found $GPGGA at:0$GPGGA,000129,,N,,E,0,00,,,M,,M,,*67
found $GPRMC at:0$GPRMC,000129,V,,N,,E,,,010303,,,N*53
found $GPGGA at:0$GPGGA,000130,,N,,E,0,00,,,M,,M,,*6F
found $GPRMC at:0$GPRMC,000130,V,,N,,E,,,010303,,,N*5B
found $GPGGA at:0$GPGGA,000131,,N,,E,0,00,,,M,,M,,*6E
found $GPRMC at:0$GPRMC,000131,V,,N,,E,,,010303,,,N*5A
found $GPGGA at:0$GPGGA,000132,,N,,E,0,00,,,M,,M,,*6D
found $GPRMC at:0$GPRMC,000132,V,,N,,E,,,010303,,,N*59
found $GPGGA at:0$GPGGA,000133,,N,,E,0,00,,,M,,M,,*6C
found $GPRMC at:0$GPRMC,000133,V,,N,,E,,,010303,,,N*58
found $GPGGA at:0$GPGGA,000134,,N,,E,0,00,,,M,,M,,*6B
found $GPRMC at:0$GPRMC,000134,V,,N,,E,,,010303,,,N*5F
found $GPGGA at:0$GPGGA,000135,,N,,E,0,00,,,M,,M,,*6A
found $GPRMC at:0$GPRMC,000135,V,,N,,E,,,010303,,,N*5E
found $GPGGA at:0$GPGGA,000136,,N,,E,0,00,,,M,,M,,*69
found $GPRMC at:0$GPRMC,000136,V,,N,,E,,,010303,,,N*5D
found $GPGGA at:0$GPGGA,000137,,N,,E,0,00,,,M,,M,,*68
found $GPRMC at:0$GPRMC,000137,V,,N,,E,,,010303,,,N*5C
found $GPGGA at:0$GPGGA,000138,,N,,E,0,00,,,M,,M,,*67
found $GPRMC at:0$GPRMC,000138,V,,N,,E,,,010303,,,N*53
found $GPGGA at:0$GPGGA,000139,,N,,E,0,00,,,M,,M,,*66
found $GPRMC at:0$GPRMC,000139,V,,N,,E,,,010303,,,N*52
found $GPGGA at:0$GPGGA,000140,,N,,E,0,00,,,M,,M,,*68
found $GPRMC at:0$GPRMC,000140,V,,N,,E,,,010303,,,N*5C
found $GPGGA at:0$GPGGA,000141,,N,,E,0,00,,,M,,M,,*69
found $GPRMC at:0$GPRMC,000141,V,,N,,E,,,010303,,,N*5D
found $GPGGA at:0$GPGGA,000142,,N,,E,0,00,,,M,,M,,*6A
found $GPRMC at:0$GPRMC,000142,V,,N,,E,,,010303,,,N*5E
found $GPGGA at:0$GPGGA,000143,,N,,E,0,00,,,M,,M,,*6B
found $GPRMC at:0$GPRMC,000143,V,,N,,E,,,010303,,,N*5F
found $GPGGA at:0$GPGGA,000144,,N,,E,0,00,,,M,,M,,*6C
found $GPRMC at:0$GPRMC,000144,V,,N,,E,,,010303,,,N*58
found $GPGGA at:0$GPGGA,000145,,N,,E,0,00,,,M,,M,,*6D
found $GPRMC at:0$GPRMC,000145,V,,N,,E,,,010303,,,N*59
found $GPGGA at:0$GPGGA,000146,,N,,E,0,00,,,M,,M,,*6E
found $GPRMC at:0$GPRMC,000146,V,,N,,E,,,010303,,,N*5A
found $GPGGA at:0$GPGGA,000147,,N,,E,0,00,,,M,,M,,*6F
found $GPRMC at:0$GPRMC,000147,V,,N,,E,,,010303,,,N*5B
found $GPGGA at:0$GPGGA,000148,,N,,E,0,00,,,M,,M,,*60
found $GPRMC at:0$GPRMC,000148,V,,N,,E,,,010303,,,N*54
found $GPGGA at:0$GPGGA,000149,,N,,E,0,00,,,M,,M,,*61
found $GPRMC at:0$GPRMC,000149,V,,N,,E,,,010303,,,N*55
found $GPGGA at:0$GPGGA,000150,,N,,E,0,00,,,M,,M,,*69
found $GPRMC at:0$GPRMC,000150,V,,N,,E,,,010303,,,N*5D
found $GPGGA at:0$GPGGA,000151,,N,,E,0,00,,,M,,M,,*68
found $GPRMC at:0$GPRMC,000151,V,,N,,E,,,010303,,,N*5C
found $GPGGA at:0$GPGGA,000152,,N,,E,0,00,,,M,,M,,*6B
found $GPRMC at:0$GPRMC,000152,V,,N,,E,,,010303,,,N*5F
found $GPGGA at:0$GPGGA,000153,,N,,E,0,00,,,M,,M,,*6A
found $GPRMC at:0$GPRMC,000153,V,,N,,E,,,010303,,,N*5E
found $GPGGA at:0$GPGGA,000154,,N,,E,0,00,,,M,,M,,*6D
found $GPRMC at:0$GPRMC,000154,V,,N,,E,,,010303,,,N*59
found $GPGGA at:0$GPGGA,000155,,N,,E,0,00,,,M,,M,,*6C
found $GPRMC at:0$GPRMC,000155,V,,N,,E,,,010303,,,N*58
found $GPGGA at:0$GPGGA,000156,,N,,E,0,00,,,M,,M,,*6F
found $GPRMC at:0$GPRMC,000156,V,,N,,E,,,010303,,,N*5B
found $GPGGA at:0$GPGGA,000157,,N,,E,0,00,,,M,,M,,*6E
found $GPRMC at:0$GPRMC,000157,V,,N,,E,,,010303,,,N*5A
found $GPGGA at:0$GPGGA,000158,,N,,E,0,00,,,M,,M,,*61
found $GPRMC at:0$GPRMC,000158,V,,N,,E,,,010303,,,N*55
found $GPGGA at:0$GPGGA,000159,,N,,E,0,00,,,M,,M,,*60
found $GPRMC at:0$GPRMC,000159,V,,N,,E,,,010303,,,N*54
found $GPGGA at:0$GPGGA,000200,,N,,E,0,00,,,M,,M,,*6F
found $GPRMC at:0$GPRMC,000200,V,,N,,E,,,010303,,,N*5B
found $GPGGA at:0$GPGGA,000201,,N,,E,0,00,,,M,,M,,*6E
found $GPRMC at:0$GPRMC,000201,V,,N,,E,,,010303,,,N*5A
found $GPGGA at:0$GPGGA,000202,,N,,E,0,00,,,M,,M,,*6D
found $GPRMC at:0$GPRMC,000202,V,,N,,E,,,010303,,,N*59
found $GPGGA at:0$GPGGA,000203,,N,,E,0,00,,,M,,M,,*6C
found $GPRMC at:0$GPRMC,000203,V,,N,,E,,,010303,,,N*58
found $GPGGA at:0$GPGGA,212038,,N,,E,0,00,,,M,,M,,*67
found $GPRMC at:0$GPRMC,212038,V,,N,,E,,,250112,,,N*57
found $GPGGA at:0$GPGGA,212039,,N,,E,0,00,,,M,,M,,*66
found $GPRMC at:0$GPRMC,212039,V,,N,,E,,,250112,,,N*56
found $GPGGA at:0$GPGGA,212040,,N,,E,0,00,,,M,,M,,*68
found $GPRMC at:0$GPRMC,212040,V,,N,,E,,,250112,,,N*58
found $GPGGA at:0$GPGGA,212041,,N,,E,0,00,,,M,,M,,*69
found $GPRMC at:0$GPRMC,212041,V,,N,,E,,,250112,,,N*59
found $GPGGA at:0$GPGGA,212042,,N,,E,0,00,,,M,,M,,*6A
found $GPRMC at:0$GPRMC,212042,V,,N,,E,,,250112,,,N*5A
found $GPGGA at:0$GPGGA,212040,,N,,E,0,00,,,M,,M,,*68
found $GPRMC at:0$GPRMC,212040,V,,N,,E,,,250112,,,N*58
found $GPGGA at:0$GPGGA,212041,,N,,E,0,00,,,M,,M,,*69
found $GPRMC at:0$GPRMC,212041,V,,N,,E,,,250112,,,N*59
found $GPGGA at:0$GPGGA,212042,,N,,E,0,00,,,M,,M,,*6A
found $GPRMC at:0$GPRMC,212042,V,,N,,E,,,250112,,,N*5A
found $GPGGA at:0$GPGGA,212043,,N,,E,0,00,,,M,,M,,*6B
found $GPRMC at:0$GPRMC,212043,V,,N,,E,,,250112,,,N*5B
found $GPGGA at:0$GPGGA,212044,,N,,E,0,00,,,M,,M,,*6C
found $GPRMC at:0$GPRMC,212044,V,,N,,E,,,250112,,,N*5C
found $GPGGA at:0$GPGGA,212045,,N,,E,0,00,,,M,,M,,*6D
found $GPRMC at:0$GPRMC,212045,V,,N,,E,,,250112,,,N*5D
found $GPGGA at:0$GPGGA,212046,,N,,E,0,00,,,M,,M,,*6E
found $GPRMC at:0$GPRMC,212046,V,,N,,E,,,250112,,,N*5E
found $GPGGA at:0$GPGGA,212047,,N,,E,0,00,,,M,,M,,*6F
found $GPRMC at:0$GPRMC,212047,V,,N,,E,,,250112,,,N*5F
found $GPGGA at:0$GPGGA,212048,,N,,E,0,00,,,M,,M,,*60
found $GPRMC at:0$GPRMC,212048,V,,N,,E,,,250112,,,N*50
found $GPGGA at:0$GPGGA,212049,,N,,E,0,00,,,M,,M,,*61
found $GPRMC at:0$GPRMC,212049,V,,N,,E,,,250112,,,N*51
found $GPGGA at:0$GPGGA,212050,,N,,E,0,00,,,M,,M,,*69
found $GPRMC at:0$GPRMC,212050,V,,N,,E,,,250112,,,N*59
found $GPGGA at:0$GPGGA,212051,,N,,E,0,00,,,M,,M,,*68
found $GPRMC at:0$GPRMC,212051,V,,N,,E,,,250112,,,N*58
found $GPGGA at:0$GPGGA,212052,,N,,E,0,00,,,M,,M,,*6B
found $GPRMC at:0$GPRMC,212052,V,,N,,E,,,250112,,,N*5B
found $GPGGA at:0$GPGGA,212053,,N,,E,0,00,,,M,,M,,*6A
found $GPRMC at:0$GPRMC,212053,V,,N,,E,,,250112,,,N*5A
found $GPGGA at:0$GPGGA,212054,,N,,E,0,00,,,M,,M,,*6D
found $GPRMC at:0$GPRMC,212054,V,,N,,E,,,250112,,,N*5D
found $GPGGA at:0$GPGGA,212055,,N,,E,0,00,,,M,,M,,*6C
found $GPRMC at:0$GPRMC,212055,V,,N,,E,,,250112,,,N*5C
found $GPGGA at:0$GPGGA,212056,,N,,E,0,00,,,M,,M,,*6F
found $GPRMC at:0$GPRMC,212056,V,,N,,E,,,250112,,,N*5F
found $GPGGA at:0$GPGGA,212057,,N,,E,0,00,,,M,,M,,*6E
found $GPRMC at:0$GPRMC,212057,V,,N,,E,,,250112,,,N*5E
found $GPGGA at:0$GPGGA,212058,,N,,E,0,00,,,M,,M,,*61
found $GPRMC at:0$GPRMC,212058,V,,N,,E,,,250112,,,N*51
found $GPGGA at:0$GPGGA,212059,,N,,E,0,00,,,M,,M,,*60
found $GPRMC at:0$GPRMC,212059,V,,N,,E,,,250112,,,N*50
found $GPGGA at:0$GPGGA,212100,,N,,E,0,00,,,M,,M,,*6D
found $GPRMC at:0$GPRMC,212100,V,,N,,E,,,250112,,,N*5D
found $GPGGA at:0$GPGGA,212101,,N,,E,0,00,,,M,,M,,*6C
found $GPRMC at:0$GPRMC,212101,V,,N,,E,,,250112,,,N*5C
found $GPGGA at:0$GPGGA,212102,,N,,E,0,00,,,M,,M,,*6F
found $GPRMC at:0$GPRMC,212102,V,,N,,E,,,250112,,,N*5F
found $GPGGA at:0$GPGGA,212103,,N,,E,0,00,,,M,,M,,*6E
found $GPRMC at:0$GPRMC,212103,V,,N,,E,,,250112,,,N*5E
found $GPGGA at:0$GPGGA,212104,,N,,E,0,00,,,M,,M,,*69
found $GPRMC at:0$GPRMC,212104,V,,N,,E,,,250112,,,N*59
found $GPGGA at:0$GPGGA,212105,,N,,E,0,00,,,M,,M,,*68
found $GPRMC at:0$GPRMC,212105,V,,N,,E,,,250112,,,N*58
found $GPGGA at:0$GPGGA,212106,,N,,E,0,00,,,M,,M,,*6B
found $GPRMC at:0$GPRMC,212106,V,,N,,E,,,250112,,,N*5B
found $GPGGA at:0$GPGGA,212107,4707.4238,N,00853.7085,E,1,04,04.0,00719.7,M,048.0,M,,*4C
found $GPRMC at:0$GPRMC,212107,A,4707.4238,N,00853.7085,E,000.2,000.0,250112,,,A*7D
found $GPGGA at:0$GPGGA,212108,4707.4227,N,00853.7077,E,1,04,04.0,00720.2,M,048.0,M,,*4F
found $GPRMC at:0$GPRMC,212108,A,4707.4227,N,00853.7077,E,001.1,000.0,250112,,,A*73
found $GPGGA at:0$GPGGA,212109,4707.4233,N,00853.7113,E,1,04,04.0,00725.1,M,048.0,M,,*4E
found $GPRMC at:0$GPRMC,212109,A,4707.4233,N,00853.7113,E,000.0,000.0,250112,,,A*74
found $GPGGA at:0$GPGGA,212110,4707.4217,N,00853.7113,E,1,04,04.0,00723.6,M,048.0,M,,*41
found $GPRMC at:0$GPRMC,212110,A,4707.4217,N,00853.7113,E,000.0,000.0,250112,,,A*7A
found $GPGGA at:0$GPGGA,212111,4707.4203,N,00853.7101,E,1,04,04.0,00719.6,M,048.0,M,,*4F
found $GPRMC at:0$GPRMC,212111,A,4707.4203,N,00853.7101,E,000.0,000.0,250112,,,A*7D
found $GPGGA at:0$GPGGA,212112,4707.4195,N,00853.7095,E,1,04,04.0,00718.3,M,048.0,M,,*48
found $GPRMC at:0$GPRMC,212112,A,4707.4195,N,00853.7095,E,000.0,000.0,250112,,,A*7E
found $GPGGA at:0$GPGGA,212113,4707.4191,N,00853.7094,E,1,04,04.0,00718.1,M,048.0,M,,*4E
found $GPRMC at:0$GPRMC,212113,A,4707.4191,N,00853.7094,E,000.0,000.0,250112,,,A*7A
found $GPGGA at:0$GPGGA,212114,4707.4192,N,00853.7094,E,1,04,04.0,00717.8,M,048.0,M,,*4C
found $GPRMC at:0$GPRMC,212114,A,4707.4192,N,00853.7094,E,000.0,000.0,250112,,,A*7E
found $GPGGA at:0$GPGGA,212115,4707.4193,N,00853.7096,E,1,04,04.0,00717.6,M,048.0,M,,*40
found $GPRMC at:0$GPRMC,212115,A,4707.4193,N,00853.7096,E,000.0,000.0,250112,,,A*7C
found $GPGGA at:0$GPGGA,212116,4707.4192,N,00853.7095,E,1,04,04.0,00717.0,M,048.0,M,,*47
found $GPRMC at:0$GPRMC,212116,A,4707.4192,N,00853.7095,E,000.0,000.0,250112,,,A*7D
found $GPGGA at:0$GPGGA,212117,4707.4190,N,00853.7094,E,1,04,04.0,00716.6,M,048.0,M,,*42
found $GPRMC at:0$GPRMC,212117,A,4707.4190,N,00853.7094,E,000.0,000.0,250112,,,A*7F
found $GPGGA at:0$GPGGA,212118,4707.4192,N,00853.7095,E,1,04,04.0,00717.2,M,048.0,M,,*4B
found $GPRMC at:0$GPRMC,212118,A,4707.4192,N,00853.7095,E,000.0,000.0,250112,,,A*73
found $GPGGA at:0$GPGGA,212119,4707.4193,N,00853.7096,E,1,04,04.0,00717.8,M,048.0,M,,*42
found $GPRMC at:0$GPRMC,212119,A,4707.4193,N,00853.7096,E,000.0,000.0,250112,,,A*70
found $GPGGA at:0$GPGGA,212120,4707.4194,N,00853.7097,E,1,04,04.0,00717.9,M,048.0,M,,*4F
found $GPRMC at:0$GPRMC,212120,A,4707.4194,N,00853.7097,E,000.0,000.0,250112,,,A*7C
found $GPGGA at:0$GPGGA,212121,4707.4196,N,00853.7098,E,1,04,04.0,00718.0,M,048.0,M,,*45
found $GPRMC at:0$GPRMC,212121,A,4707.4196,N,00853.7098,E,000.0,000.0,250112,,,A*70
found $GPGGA at:0$GPGGA,212122,4707.4198,N,00853.7100,E,1,04,04.0,00718.6,M,048.0,M,,*4E
found $GPRMC at:0$GPRMC,212122,A,4707.4198,N,00853.7100,E,000.0,000.0,250112,,,A*7D
found $GPGGA at:0$GPGGA,212123,4707.4200,N,00853.7101,E,1,04,04.0,00719.0,M,048.0,M,,*4B
found $GPRMC at:0$GPRMC,212123,A,4707.4200,N,00853.7101,E,000.0,000.0,250112,,,A*7F
found $GPGGA at:0$GPGGA,212124,4707.4201,N,00853.7102,E,1,04,04.0,00719.1,M,048.0,M,,*4F
found $GPRMC at:0$GPRMC,212124,A,4707.4201,N,00853.7102,E,000.0,000.0,250112,,,A*7A
found $GPGGA at:0$GPGGA,212125,4707.4201,N,00853.7103,E,1,04,04.0,00719.5,M,048.0,M,,*4B
found $GPRMC at:0$GPRMC,212125,A,4707.4201,N,00853.7103,E,000.0,000.0,250112,,,A*7A
found $GPGGA at:0$GPGGA,212126,4707.4202,N,00853.7104,E,1,04,04.0,00719.9,M,048.0,M,,*40
found $GPRMC at:0$GPRMC,212126,A,4707.4202,N,00853.7104,E,000.0,000.0,250112,,,A*7D
found $GPGGA at:0$GPGGA,212127,4707.4203,N,00853.7105,E,1,04,04.0,00719.9,M,048.0,M,,*41
found $GPRMC at:0$GPRMC,212127,A,4707.4203,N,00853.7105,E,000.0,000.0,250112,,,A*7C
found $GPGGA at:0$GPGGA,212128,4707.4204,N,00853.7104,E,1,04,04.0,00719.6,M,048.0,M,,*47
found $GPRMC at:0$GPRMC,212128,A,4707.4204,N,00853.7104,E,000.0,000.0,250112,,,A*75
found $GPGGA at:0$GPGGA,212129,4707.4203,N,00853.7103,E,1,04,04.0,00719.0,M,048.0,M,,*40
found $GPRMC at:0$GPRMC,212129,A,4707.4203,N,00853.7103,E,000.0,000.0,250112,,,A*74
found $GPGGA at:0$GPGGA,212130,4707.4203,N,00853.7100,E,1,04,04.0,00718.4,M,048.0,M,,*4E
found $GPRMC at:0$GPRMC,212130,A,4707.4203,N,00853.7100,E,000.0,000.0,250112,,,A*7F
found $GPGGA at:0$GPGGA,212131,4707.4202,N,00853.7098,E,1,04,04.0,00717.8,M,048.0,M,,*4D
found $GPRMC at:0$GPRMC,212131,A,4707.4202,N,00853.7098,E,000.0,000.0,250112,,,A*7F
found $GPGGA at:0$GPGGA,212132,4707.4202,N,00853.7096,E,1,04,04.0,00717.4,M,048.0,M,,*4C
found $GPRMC at:0$GPRMC,212132,A,4707.4202,N,00853.7096,E,000.0,000.0,250112,,,A*72
found $GPGGA at:0$GPGGA,212133,4707.4203,N,00853.7095,E,1,04,04.0,00716.9,M,048.0,M,,*43
found $GPRMC at:0$GPRMC,212133,A,4707.4203,N,00853.7095,E,000.0,000.0,250112,,,A*71
found $GPGGA at:0$GPGGA,212134,4707.4204,N,00853.7รฐ
Copyright (C) Sony Corp. 2001-05 All rights reserved.
  Software Version 001092
found $GPGGA at:0$GPGGA,212135,4707.4204,N,00853.7094,E,0,00,,00716.5,M,048.0,M,,E
found $GPRMC at:0$GPRMC,212135,V,4707.4204,N,000,250112,,,N*69
found $GPGGA at:0$GPGGA,212136,4707.4204,N,00853.7094,E,0,00,,00716.5,M,048.0,M,,*53
found $GPRMC at:0$GPRMC,212136,V,4707.4204,N,00853.7094,E,000.0,000.0,250112,,,N*6A
found $GPGGA at:0$GPGGA,212137,4707.4204,N,00853.7094,E,0,00,,00716.5,M,048.0,M,,*52
found $GPRMC at:0$GPRMC,212137,V,4707.4204,N,00853.7094,E,000.0,000.0,250112,,,N*6B
found $GPGGA at:0$GPGGA,212138,4707.4204,N,00853.7094,E,0,00,,00716.5,M,048.0,M,,*5D
found $GPRMC at:0$GPRMC,212138,V,4707.4204,N,00853.7094,E,000.0,000.0,250112,,,N*64
found $GPGGA at:0$GPGGA,212139,4707.4204,N,00853.7094,E,0,00,,00716.5,M,048.0,M,,*5C
found $GPRMC at:0$GPRMC,212139,V,4707.4204,N,00853.7094,E,000.0,000.0,250112,,,N*65
found $GPGGA at:0$GPGGA,212140,4707.4204,N,00853.7094,E,0,00,,00716.5,M,048.0,M,,*52
found $GPRMC at:0$GPRMC,212140,V,4707.4204,N,00853.7094,E,000.0,000.0,250112,,,N*6B
found $GPGGA at:0$GPGGA,212141,4707.4204,N,00853.7094,E,0,00,,00716.5,M,048.0,M,,*53
found $GPRMC at:0$GPRMC,212141,V,4707.4204,N,00853.7094,E,000.0,000.0,250112,,,N*6A
found $GPGGA at:0$GPGGA,212142,4707.4204,N,00853.7094,E,0,00,,00716.5,M,048.0,M,,*50
found $GPRMC at:0$GPRMC,212142,V,4707.4204,N,00853.7094,E,000.0,000.0,250112,,,N*69
found $GPGGA at:0$GPGGA,212143,4707.4204,N,00853.7094,E,0,00,,00716.5,M,048.0,M,,*51
found $GPRMC at:0$GPRMC,212143,V,4707.4204,N,00853.7094,E,000.0,000.0,250112,,,N*68
found $GPGGA at:0$GPGGA,212144,4707.4204,N,00853.7094,E,0,00,,00716.5,M,048.0,M,,*56
found $GPRMC at:0$GPRMC,212144,V,4707.4204,N,00853.7094,E,000.0,000.0,250112,,,N*6F
found $GPGGA at:0$GPGGA,212145,4707.4204,N,00853.7094,E,0,00,,00716.5,M,048.0,M,,*57
found $GPRMC at:0$GPRMC,212145,V,4707.4204,N,00853.7094,E,000.0,000.0,250112,,,N*6E
found $GPGGA at:0$GPGGA,212146,4707.4204,N,00853.7094,E,0,00,,00716.5,M,048.0,M,,*54
found $GPRMC at:0$GPRMC,212146,V,4707.4204,N,00853.7094,E,000.0,000.0,250112,,,N*6D
found $GPGGA at:0$GPGGA,212147,4707.4024,N,00853.7080,E,1,04,04.6,00716.5,M,048.0,M,,*49
found $GPRMC at:0$GPRMC,212147,A,4707.4024,N,00853.7080,E,000.0,000.0,250112,,,A*71
found $GPGGA at:0$GPGGA,212148,4707.4030,N,00853.7071,E,1,04,04.6,00716.5,M,048.0,M,,*4D
found $GPRMC at:0$GPRMC,212148,A,4707.4030,N,00853.7071,E,001.1,000.0,250112,,,A*75
found $GPGGA at:0$GPGGA,212149,4707.4022,N,00853.7086,E,1,04,04.6,00716.3,M,048.0,M,,*41
found $GPRMC at:0$GPRMC,212149,A,4707.4022,N,00853.7086,E,000.5,000.0,250112,,,A*7A
found $GPGGA at:0$GPGGA,212150,4707.4212,N,00853.7105,E,1,04,04.0,00700.5,M,048.0,M,,*45
found $GPRMC at:0$GPRMC,212150,A,4707.4212,N,00853.7105,E,000.0,000.0,250112,,,A*7C
found $GPGGA at:0$GPGGA,212151,4707.4204,N,00853.7097,E,1,04,04.0,00694.7,M,048.0,M,,*47
found $GPRMC at:0$GPRMC,212151,A,4707.4204,N,00853.7097,E,000.0,000.0,250112,,,A*70
found $GPGGA at:0$GPGGA,212152,4707.4227,N,00853.7102,E,1,04,04.0,00694.0,M,048.0,M,,*4F
found $GPRMC at:0$GPRMC,212152,A,4707.4227,N,00853.7102,E,000.0,000.0,250112,,,A*7F
found $GPGGA at:0$GPGGA,212153,4707.4234,N,00853.7100,E,1,04,04.0,00691.9,M,048.0,M,,*42
found $GPRMC at:0$GPRMC,212153,A,4707.4234,N,00853.7100,E,000.0,000.0,250112,,,A*7E
found $GPGGA at:0$GPGGA,212154,4707.4232,N,00853.7096,E,1,04,04.0,00690.7,M,048.0,M,,*42
found $GPRMC at:0$GPRMC,212154,A,4707.4232,N,00853.7096,E,000.0,000.0,250112,,,A*71
found $GPGGA at:0$GPGGA,212155,4707.4236,N,00853.7096,E,1,04,04.0,00691.1,M,048.0,M,,*40
found $GPRMC at:0$GPRMC,212155,A,4707.4236,N,00853.7096,E,000.0,000.0,250112,,,A*74
found $GPGGA at:0$GPGGA,212156,4707.4238,N,00853.7094,E,1,04,04.0,00691.2,M,048.0,M,,*4C
found $GPRMC at:0$GPRMC,212156,A,4707.4238,N,00853.7094,E,000.0,000.0,250112,,,A*7B
found $GPGGA at:0$GPGGA,212157,4707.4236,N,00853.7093,E,1,04,04.0,00691.7,M,048.0,M,,*41
found $GPRMC at:0$GPRMC,212157,A,4707.4236,N,00853.7093,E,000.0,000.0,250112,,,A*73
found $GPGGA at:0$GPGGA,212158,4707.4235,N,00853.7093,E,1,04,04.0,00692.7,M,048.0,M,,*4E
found $GPRMC at:0$GPRMC,212158,A,4707.4235,N,00853.7093,E,000.0,000.0,250112,,,A*7F
found $GPGGA at:0$GPGGA,212159,4707.4230,N,00853.7093,E,1,04,04.0,00693.8,M,048.0,M,,*44
found $GPRMC at:0$GPRMC,212159,A,4707.4230,N,00853.7093,E,000.0,000.0,250112,,,A*7B
found $GPGGA at:0$GPGGA,212200,4707.4227,N,00853.7094,E,1,04,04.0,00695.2,M,048.0,M,,*46
found $GPRMC at:0$GPRMC,212200,A,4707.4227,N,00853.7094,E,000.0,000.0,250112,,,A*75
found $GPGGA at:0$GPGGA,212201,4707.4224,N,00853.7096,E,1,04,04.0,00696.9,M,048.0,M,,*4E
found $GPRMC at:0$GPRMC,212201,A,4707.4224,N,00853.7096,E,000.0,000.0,250112,,,A*75
found $GPGGA at:0$GPGGA,212202,4707.4225,N,00853.7098,E,1,04,04.0,00698.4,M,048.0,M,,*41
found $GPRMC at:0$GPRMC,212202,A,4707.4225,N,00853.7098,E,000.0,000.0,250112,,,A*79
found $GPGGA at:0$GPGGA,212203,4707.4227,N,00853.7100,E,1,04,04.0,00699.5,M,048.0,M,,*42
found $GPRMC at:0$GPRMC,212203,A,4707.4227,N,00853.7100,E,000.0,000.0,250112,,,A*7A
found $GPGGA at:0$GPGGA,212204,4707.4229,N,00853.7103,E,1,04,03.9,00700.7,M,048.0,M,,*45
found $GPRMC at:0$GPRMC,212204,A,4707.4229,N,00853.7103,E,000.0,000.0,250112,,,A*70
found $GPGGA at:0$GPGGA,212205,4707.4231,N,00853.7104,E,1,04,03.9,00701.8,M,048.0,M,,*44
found $GPRMC at:0$GPRMC,212205,A,4707.4231,N,00853.7104,E,000.0,000.0,250112,,,A*7F
found $GPGGA at:0$GPGGA,212206,4707.4234,N,00853.7105,E,1,04,03.9,00702.8,M,048.0,M,,*40
found $GPRMC at:0$GPRMC,212206,A,4707.4234,N,00853.7105,E,000.0,000.0,250112,,,A*78
found $GPGGA at:0$GPGGA,212207,4707.4246,N,00853.7109,E,1,05,02.2,00704.5,M,048.0,M,,*48
found $GPRMC at:0$GPRMC,212207,A,4707.4246,N,00853.7109,E,000.0,000.0,250112,,,A*70
found $GPGGA at:0$GPGGA,212208,4707.4251,N,00853.7110,E,1,05,02.2,00705.0,M,048.0,M,,*4D
found $GPRMC at:0$GPRMC,212208,A,4707.4251,N,00853.7110,E,000.0,000.0,250112,,,A*71
found $GPGGA at:0$GPGGA,212209,4707.4256,N,00853.7111,E,1,05,02.2,00705.3,M,048.0,M,,*49
found $GPRMC at:0$GPRMC,212209,A,4707.4256,N,00853.7111,E,000.0,000.0,250112,,,A*76
found $GPGGA at:0$GPGGA,212210,4707.4260,N,00853.7112,E,1,05,02.2,00705.9,M,048.0,M,,*4D
found $GPRMC at:0$GPRMC,212210,A,4707.4260,N,00853.7112,E,000.0,000.0,250112,,,A*78
found $GPGGA at:0$GPGGA,212211,4707.4263,N,00853.7113,E,1,05,02.2,00706.6,M,048.0,M,,*42
found $GPRMC at:0$GPRMC,212211,A,4707.4263,N,00853.7113,E,000.0,000.0,250112,,,A*7B
found $GPGGA at:0$GPGGA,212212,4707.4265,N,00853.7113,E,1,05,02.2,00707.2,M,048.0,M,,*42
found $GPRMC at:0$GPRMC,212212,A,4707.4265,N,00853.7113,E,000.0,000.0,250112,,,A*7E
found $GPGGA at:0$GPGGA,212213,4707.4267,N,00853.7112,E,1,05,02.2,00707.6,M,048.0,M,,*44
found $GPRMC at:0$GPRMC,212213,A,4707.4267,N,00853.7112,E,000.0,000.0,250112,,,A*7C
found $GPGGA at:0$GPGGA,212214,4707.4269,N,00853.7112,E,1,05,02.2,00708.3,M,048.0,M,,*47
found $GPRMC at:0$GPRMC,212214,A,4707.4269,N,00853.7112,E,000.0,000.0,250112,,,A*75
found $GPGGA at:0$GPGGA,212215,4707.4271,N,00853.7112,E,1,05,02.2,00709.0,M,048.0,M,,*4D
found $GPRMC at:0$GPRMC,212215,A,4707.4271,N,00853.7112,E,000.0,000.0,250112,,,A*7D
found $GPGGA at:0$GPGGA,212216,4707.4273,N,00853.7112,E,1,05,02.2,00709.7,M,048.0,M,,*4B
found $GPRMC at:0$GPRMC,212216,A,4707.4273,N,00853.7112,E,000.0,000.0,250112,,,A*7C
found $GPGGA at:0$GPGGA,212217,4707.4275,N,00853.7112,E,1,05,02.2,00710.1,M,048.0,M,,*42
found $GPRMC at:0$GPRMC,212217,A,4707.4275,N,00853.7112,E,000.0,000.0,250112,,,A*7B
found $GPGGA at:0$GPGGA,212218,4707.4276,N,00853.7111,E,1,05,02.2,00710.5,M,048.0,M,,*49
found $GPRMC at:0$GPRMC,212218,A,4707.4276,N,00853.7111,E,000.0,000.0,250112,,,A*74
found $GPGGA at:0$GPGGA,212219,4707.4277,N,00853.7111,E,1,05,02.2,00711.1,M,048.0,M,,*4C
found $GPRMC at:0$GPRMC,212219,A,4707.4277,N,00853.7111,E,000.0,000.0,250112,,,A*74
found $GPGGA at:0$GPGGA,212220,4707.4278,N,00853.7111,E,1,05,02.2,00712.0,M,048.0,M,,*4B
found $GPRMC at:0$GPRMC,212220,A,4707.4278,N,00853.7111,E,000.0,000.0,250112,,,A*71
found $GPGGA at:0$GPGGA,212221,4707.4278,N,00853.7112,E,1,05,02.2,00712.9,M,048.0,M,,*40
found $GPRMC at:0$GPRMC,212221,A,4707.4278,N,00853.7112,E,000.0,000.0,250112,,,A*73
found $GPGGA at:0$GPGGA,212222,4707.4279,N,00853.7112,E,1,05,02.2,00713.5,M,048.0,M,,*4F
found $GPRMC at:0$GPRMC,212222,A,4707.4279,N,00853.7112,E,000.0,000.0,250112,,,A*71
found $GPGGA at:0$GPGGA,212223,4707.4280,N,00853.7112,E,1,05,02.2,00713.8,M,048.0,M,,*45
found $GPRMC at:0$GPRMC,212223,A,4707.4280,N,00853.7112,E,000.0,000.0,250112,,,A*76
found $GPGGA at:0$GPGGA,212224,4707.4281,N,00853.7112,E,1,05,02.2,00714.0,M,048.0,M,,*4C
found $GPRMC at:0$GPRMC,212224,A,4707.4281,N,00853.7112,E,000.0,000.0,250112,,,A*70
found $GPGGA at:0$GPGGA,212225,4707.4282,N,00853.7112,E,1,05,02.2,00714.0,M,048.0,M,,*4E
found $GPRMC at:0$GPRMC,212225,A,4707.4282,N,00853.7112,E,000.0,000.0,250112,,,A*72
found $GPGGA at:0$GPGGA,212226,4707.4283,N,00853.7112,E,1,05,02.2,00714.0,M,048.0,M,,*4C
found $GPRMC at:0$GPRMC,212226,A,4707.4283,N,00853.7112,E,000.0,000.0,250112,,,A*70
found $GPGGA at:0$GPGGA,212227,4707.4284,N,00853.7113,E,1,05,02.2,00714.2,M,048.0,M,,*49



